{
  "schedulings": [
    {
      "id": "0",

      "namePatient": "Daiane Pilates",
      "pathology": ["Fisioterapia"],

      "dateSchenduling": "2025-07-14T10:30:00",
      "hours": "07:00",

      "status": "Em atendimento",
      "image": ""
    },
    {
      "id": "1",

      "namePatient": "Marisani",
      "pathology": ["Fisioterapia"],

      "dateSchenduling": "2025-07-15T10:30:00",
      "hours": "07:00",

      "status": "Agendado",
      "image": ""
    },
    {
      "id": "2",

      "namePatient": "Luiz José",
      "pathology": ["Fisioterapia"],

      "dateSchenduling": "2025-07-15T10:30:00",
      "hours": "08:00",

      "status": "Agendado",
      "image": ""
    },
    {
      "id": "3",
      "namePatient": "Maria dos Anjos",
      "pathology": ["Fisioterapia"],
      "dateSchenduling": "2025-07-15T10:30:00",
      "hours": "08:00",
      "status": "Agendado",
      "image": ""
    },
    {
      "id": "4",

      "namePatient": "Dinair",
      "pathology": ["Fisioterapia"],

      "dateSchenduling": "2025-07-15T10:30:00",
      "hours": "08:00",

      "status": "Agendado",
      "image": ""
    },
    {
      "id": "5",

      "namePatient": "Daniella Vieira",
      "pathology": ["Fisioterapia"],

      "dateSchenduling": "2025-07-15T10:30:00",
      "hours": "09:00",

      "status": "Agendado",
      "image": ""
    },
    {
      "id": "6",

      "namePatient": "Rosileyde",
      "pathology": ["Fisioterapia"],

      "dateSchenduling": "2025-07-15T10:30:00",
      "hours": "10:00",

      "status": "Agendado",
      "image": ""
    },
    {
      "id": "7",

      "namePatient": "Vera",
      "pathology": ["Fisioterapia"],

      "dateSchenduling": "2025-07-15T10:30:00",
      "hours": "10:00",

      "status": "Agendado",
      "image": ""
    },
    {
      "id": "8",

      "namePatient": "Maria Gregore",
      "pathology": ["Fisioterapia", "Pilates"],

      "dateSchenduling": "2025-07-15T10:30:00",
      "hours": "10:00",

      "status": "Agendado",
      "image": ""
    },
    {
      "id": "9",

      "namePatient": "Ana",
      "pathology": ["Pilates"],

      "dateSchenduling": "2025-07-16T10:30:00",
      "hours": "10:00",

      "status": "Agendado",
      "image": ""
    },
    {
      "id": "10",

      "namePatient": "Bento",
      "pathology": ["Pilates"],

      "dateSchenduling": "2025-07-16T10:30:00",
      "hours": "11:00",

      "status": "Agendado",
      "image": ""
    },
    {
      "id": "11",

      "namePatient": "Mariqueli",
      "pathology": ["Fisioterapia"],

      "dateSchenduling": "2025-07-16T10:30:00",
      "hours": "16:00",

      "status": "Agendado",
      "image": ""
    },
    {
      "id": "12",

      "namePatient": "Maria de Fátima",
      "pathology": ["Fisioterapia"],

      "dateSchenduling": "2025-07-16T10:30:00",
      "hours": "16:00",

      "status": "Agendado",
      "image": ""
    },
    {
      "id": "13",

      "namePatient": "Marlene",
      "pathology": ["Fisioterapia"],

      "dateSchenduling": "2025-07-16T10:30:00",
      "hours": "08:00",

      "status": "Agendado",
      "image": ""
    },
    {
      "id": "14",

      "namePatient": "Andressa",
      "pathology": ["Fisioterapia"],

      "dateSchenduling": "2025-07-17T10:30:00",
      "hours": "16:00",

      "status": "Agendado",
      "image": ""
    },
    {
      "id": "15",

      "namePatient": "Elaine",
      "pathology": ["Fisioterapia"],

      "dateSchenduling": "2025-07-17T10:30:00",
      "hours": "17:00",

      "status": "Agendado",
      "image": ""
    },
    {
      "id": "16",

      "namePatient": "Tania Maria",
      "pathology": ["Fisioterapia"],

      "dateSchenduling": "2025-07-17T10:30:00",
      "hours": "17:00",

      "status": "Agendado",
      "image": ""
    },
    {
      "id": "17",

      "namePatient": "Quely dos Santos",
      "pathology": ["Fisioterapia"],

      "dateSchenduling": "2025-07-17T10:30:00",
      "hours": "17:00",

      "status": "Agendado",
      "image": ""
    },
    {
      "id": "18",

      "namePatient": "Ana Alice",
      "pathology": ["Fisioterapia"],

      "dateSchenduling": "2025-07-17T10:30:00",
      "hours": "17:00",

      "status": "Agendado",
      "image": ""
    },
    {
      "id": "19",

      "namePatient": "Rose Antonia",
      "pathology": ["Fisioterapia", "Pilates"],

      "dateSchenduling": "2025-07-17T10:30:00",
      "hours": "18:00",

      "status": "Agendado",
      "image": ""
    },
    {
      "id": "20",

      "namePatient": "Francisline",
      "pathology": ["Pilates"],

      "dateSchenduling": "2025-07-17T10:30:00",
      "hours": "18:00",

      "status": "Agendado",
      "image": ""
    },
    {
      "id": "21",

      "namePatient": "Niursai",
      "pathology": ["Pilates"],

      "dateSchenduling": "2025-07-17T10:30:00",
      "hours": "19:00",

      "status": "Agendado",
      "image": ""
    },
    {
      "id": "22",

      "namePatient": "Berenice",
      "pathology": ["Pilates"],

      "dateSchenduling": "2025-07-17T10:30:00",
      "hours": "19:00",

      "status": "Agendado",
      "image": ""
    },
    {
      "id": "23",

      "namePatient": "Pacheco",
      "pathology": ["Pilates"],

      "dateSchenduling": "2025-07-17T10:30:00",
      "hours": "19:00",

      "status": "Agendado",
      "image": ""
    },
    {
      "id": "24",

      "namePatient": "Dinalva",
      "pathology": ["Pilates"],

      "dateSchenduling": "2025-07-17T10:30:00",
      "hours": "07:00",

      "status": "Agendado",
      "image": ""
    },
    {
      "id": "25",

      "namePatient": "Aparecida Satiko",
      "pathology": ["Pilates"],

      "dateSchenduling": "2025-07-17T10:30:00",
      "hours": "07:00",

      "status": "Agendado",
      "image": ""
    },
    {
      "id": "26",

      "namePatient": "Fatima Satiko",
      "pathology": ["Pilates"],

      "dateSchenduling": "2025-07-17T10:30:00",
      "hours": "07:00",

      "status": "Agendado",
      "image": ""
    },
    {
      "id": "27",

      "namePatient": "Maria Lucia",
      "pathology": ["Pilates"],

      "dateSchenduling": "2025-07-14T10:30:00",
      "hours": "08:00",

      "status": "Concluido",
      "image": ""
    },
    {
      "id": "28",

      "namePatient": "Francisco",
      "pathology": ["Pilates"],

      "dateSchenduling": "2025-07-14T10:30:00",
      "hours": "07:00",

      "status": "Concluido",
      "image": ""
    },
    {
      "id": "29",

      "namePatient": "Maria Conceição",
      "pathology": ["Pilates"],

      "dateSchenduling": "2025-07-14T10:30:00",
      "hours": "08:00",

      "status": "Concluido",
      "image": ""
    },
    {
      "id": "30",

      "namePatient": "Egmar",
      "pathology": ["Pilates"],

      "dateSchenduling": "2025-07-14T10:30:00",
      "hours": "16:00",

      "status": "Concluido",
      "image": ""
    },
    {
      "id": "31",

      "namePatient": "Simone",
      "pathology": ["Pilates"],

      "dateSchenduling": "2025-07-14T10:30:00",
      "hours": "09:00",

      "status": "Concluido",
      "image": ""
    },
    {
      "id": "32",

      "namePatient": "Antonia",
      "pathology": ["Pilates"],

      "dateSchenduling": "2025-07-14T10:30:00",
      "hours": "09:00",

      "status": "Cancelado",
      "image": ""
    },
    {
      "id": "33",

      "namePatient": "Rosilaine",
      "pathology": ["Pilates"],

      "dateSchenduling": "2025-07-17T10:30:00",
      "hours": "09:00",

      "status": "Agendado",
      "image": ""
    },
    {
      "id": "34",

      "namePatient": "Jose",
      "pathology": ["Pilates"],

      "dateSchenduling": "2025-07-17T10:30:00",
      "hours": "09:00",

      "status": "Agendado",
      "image": ""
    },
    {
      "id": "35",

      "namePatient": "Jose",
      "pathology": ["Pilates"],

      "dateSchenduling": "2025-07-18T10:30:00",
      "hours": "07:00",

      "status": "Agendado",
      "image": ""
    },
    {
      "id": "36",

      "namePatient": "Jose",
      "pathology": ["Pilates"],

      "dateSchenduling": "2025-07-18T10:30:00",
      "hours": "08:00",

      "status": "Agendado",
      "image": ""
    },
    {
      "id": "37",

      "namePatient": "Jose",
      "pathology": ["Pilates"],

      "dateSchenduling": "2025-07-18T10:30:00",
      "hours": "09:00",

      "status": "Agendado",
      "image": ""
    },
    {
      "id": "38",

      "namePatient": "Jose",
      "pathology": ["Pilates"],

      "dateSchenduling": "2025-07-18T10:30:00",
      "hours": "10:00",

      "status": "Agendado",
      "image": ""
    },
    {
      "id": "39",

      "namePatient": "Jose",
      "pathology": ["Pilates"],

      "dateSchenduling": "2025-07-18T10:30:00",
      "hours": "11:00",

      "status": "Agendado",
      "image": ""
    },
    {
      "id": "40",

      "namePatient": "Egmar",
      "pathology": ["Pilates"],

      "dateSchenduling": "2025-07-14T10:30:00",
      "hours": "07:00",

      "status": "Falta",
      "image": ""
    },
    {
      "id": "41",

      "namePatient": "Simone",
      "pathology": ["Pilates"],

      "dateSchenduling": "2025-07-16T10:30:00",
      "hours": "08:00",

      "status": "Agendado",
      "image": ""
    },
    {
      "id": "42",

      "namePatient": "Antonia",
      "pathology": ["Pilates"],

      "dateSchenduling": "2025-07-16T10:30:00",
      "hours": "09:00",

      "status": "Agendado",
      "image": ""
    },
    {
      "id": "43",

      "namePatient": "Rosilaine",
      "pathology": ["Pilates"],

      "dateSchenduling": "2025-07-16T10:30:00",
      "hours": "10:00",

      "status": "Agendado",
      "image": ""
    },
    {
      "id": "44",

      "namePatient": "Jose",
      "pathology": ["Pilates"],

      "dateSchenduling": "2025-07-16T10:30:00",
      "hours": "11:00",

      "status": "Agendado",
      "image": ""
    },
    {
      "id": "45",

      "namePatient": "Jose",
      "pathology": ["Pilates"],

      "dateSchenduling": "2025-07-18T10:30:00",
      "hours": "07:00",

      "status": "Agendado",
      "image": ""
    },
    {
      "id": "46",

      "namePatient": "Jose",
      "pathology": ["Pilates"],

      "dateSchenduling": "2025-07-18T10:30:00",
      "hours": "08:00",

      "status": "Agendado",
      "image": ""
    },
    {
      "id": "47",

      "namePatient": "Jose",
      "pathology": ["Pilates"],

      "dateSchenduling": "2025-07-18T10:30:00",
      "hours": "09:00",

      "status": "Agendado",
      "image": ""
    },
    {
      "id": "48",

      "namePatient": "Jose",
      "pathology": ["Pilates"],

      "dateSchenduling": "2025-07-18T10:30:00",
      "hours": "10:00",

      "status": "Agendado",
      "image": ""
    },
    {
      "id": "49",

      "namePatient": "Jose",
      "pathology": ["Pilates"],

      "dateSchenduling": "2025-07-18T10:30:00",
      "hours": "11:00",

      "status": "Agendado",
      "image": ""
    }
  ],	
   "patients": [
    {
      "id": "001",
      "name": "Jose",
      "createdAt": "2025-07-17T10:30:00",
      "status": "ativo"
    },
     {
      "id": "002",
      "name": "João Pedro da Silva Lima",
      "createdAt": "2025-07-17T10:30:00",
      "status": "ativo"
    },
     {
      "id": "003",
      "name": "Viviane Martins da Silva",
      "createdAt": "2025-07-17T10:30:00",
      "status": "ativo"
    },
     {
      "id": "004",
      "name": "Ana Cristina da Silva",
      "createdAt": "2025-07-17T10:30:00",
      "status": "ativo"
    },
     {
      "id": "005",
      "name": "Maria dos Anjos",
      "createdAt": "2025-07-17T10:30:00",
      "status": "ativo"
    },
     {
      "id": "006",
      "name": "Luiz José",
      "createdAt": "2025-07-17T10:30:00",
      "status": "ativo"
    }
  ]
  
}
